{"displayFieldName":"","fieldAliases":{"objectid":"OBJECTID","facility_name":"Facity Name","id":"id","opening_date":"Opening Date","sector":"Sector","subdistrict":"Subdistrict","district":"District","province":"Province","facility_type":"Facility type","ownership":"Ownership","lat":"lat","long":"long"},"geometryType":"esriGeometryPoint","spatialReference":{"wkid":4326,"latestWkid":4326},"fields":[{"name":"objectid","type":"esriFieldTypeOID","alias":"OBJECTID"},{"name":"facility_name","type":"esriFieldTypeString","alias":"Facity Name","length":255},{"name":"id","type":"esriFieldTypeDouble","alias":"id"},{"name":"opening_date","type":"esriFieldTypeString","alias":"Opening Date","length":255},{"name":"sector","type":"esriFieldTypeString","alias":"Sector","length":255},{"name":"subdistrict","type":"esriFieldTypeString","alias":"Subdistrict","length":255},{"name":"district","type":"esriFieldTypeString","alias":"District","length":255},{"name":"province","type":"esriFieldTypeString","alias":"Province","length":255},{"name":"facility_type","type":"esriFieldTypeString","alias":"Facility type","length":255},{"name":"ownership","type":"esriFieldTypeString","alias":"Ownership","length":255},{"name":"lat","type":"esriFieldTypeDouble","alias":"lat"},{"name":"long","type":"esriFieldTypeDouble","alias":"long"}],"features":[{"attributes":{"objectid":1,"facility_name":"Avega Kigali HC","id":13,"opening_date":"1/1/2011","sector":"Remera","subdistrict":"Kibagabaga Sub District","district":"Gasabo ","province":"Kigali City","facility_type":"Health Center","ownership":"Agree","lat":-1.9584999999999999,"long":30.1068},"geometry":{"x":30.106800000000078,"y":-1.9584999999999582}},{"attributes":{"objectid":2,"facility_name":"Bethsaida HC","id":29,"opening_date":"1/1/2011","sector":"Kicukiro","subdistrict":"Masaka Sub District","district":"Kicukiro ","province":"Kigali City","facility_type":"Health Center","ownership":"Agree","lat":-1.97675,"long":30.114470000000001},"geometry":{"x":30.11447000000004,"y":-1.9767499999999245}},{"attributes":{"objectid":3,"facility_name":"Biryogo HC","id":1,"opening_date":"1/1/2011","sector":"Nyarugenge","subdistrict":"Muhima Sub District","district":"Nyarugenge ","province":"Kigali City","facility_type":"Health Center","ownership":"Agree","lat":-1.9669000000000001,"long":30.059999999999999},"geometry":{"x":30.060000000000059,"y":-1.9668999999999528}},{"attributes":{"objectid":4,"facility_name":"Bumbogo HC","id":552,"opening_date":"1/1/2011","sector":"Bumbogo","subdistrict":"Kibagabaga Sub District","district":"Gasabo ","province":"Kigali City","facility_type":"Health Center","ownership":"Public","lat":-1.887092,"long":30.218699999999998},"geometry":{"x":30.218700000000069,"y":-1.8870919999999387}},{"attributes":{"objectid":5,"facility_name":"Busanza HC","id":30,"opening_date":"1/1/2011","sector":"Kanombe","subdistrict":"Masaka Sub District","district":"Kicukiro ","province":"Kigali City","facility_type":"Health Center","ownership":"Public","lat":-1.9801,"long":30.1496},"geometry":{"x":30.149600000000078,"y":-1.9800999999999362}},{"attributes":{"objectid":6,"facility_name":"Butamwa HC","id":2,"opening_date":"1/1/2011","sector":"Mageragere","subdistrict":"Muhima Sub District","district":"Nyarugenge ","province":"Kigali City","facility_type":"Health Center","ownership":"Public","lat":-2.0255000000000001,"long":30.023700000000002},"geometry":{"x":30.023700000000076,"y":-2.0254999999999654}},{"attributes":{"objectid":7,"facility_name":"Caraes Ndera","id":14,"opening_date":"1/1/2011","sector":"Ndera","subdistrict":"Kibagabaga Sub District","district":"Gasabo ","province":"Kigali City","facility_type":"Referral Hospital","ownership":"Agree","lat":-1.9547000000000001,"long":30.169},"geometry":{"x":30.16900000000004,"y":-1.9546999999999457}},{"attributes":{"objectid":8,"facility_name":"CHUK","id":3,"opening_date":"1/1/2011","sector":"Nyarugenge","subdistrict":"Muhima Sub District","district":"Nyarugenge ","province":"Kigali City","facility_type":"Referral Hospital","ownership":"Public","lat":-1.9564999999999999,"long":30.060400000000001},"geometry":{"x":30.060400000000072,"y":-1.9564999999999486}},{"attributes":{"objectid":9,"facility_name":"Cor-unum HC","id":4,"opening_date":"1/1/2011","sector":"Kimisagara","subdistrict":"Muhima Sub District","district":"Nyarugenge ","province":"Kigali City","facility_type":"Health Center","ownership":"Agree","lat":-1.9454,"long":30.048300000000001},"geometry":{"x":30.04830000000004,"y":-1.9453999999999496}},{"attributes":{"objectid":10,"facility_name":"Gahanga HC","id":31,"opening_date":"1/1/2011","sector":"Gahanga","subdistrict":"Masaka Sub District","district":"Kicukiro ","province":"Kigali City","facility_type":"Health Center","ownership":"Public","lat":-2.0270000000000001,"long":30.104299999999999},"geometry":{"x":30.104300000000023,"y":-2.02699999999993}},{"attributes":{"objectid":11,"facility_name":"Gatenga HC","id":1306,"opening_date":"10/10/2014","sector":"Gatenga","subdistrict":"Masaka Sub District","district":"Kicukiro ","province":"Kigali City","facility_type":"Health Center","ownership":"Public","lat":-1.9801249999999999,"long":30.091767999999998},"geometry":{"x":30.091768000000059,"y":-1.98012499999993}},{"attributes":{"objectid":12,"facility_name":"Gihogwe HC","id":513,"opening_date":"1/1/2011","sector":"Jali","subdistrict":"Kibagabaga Sub District","district":"Gasabo ","province":"Kigali City","facility_type":"Health Center","ownership":"Public","lat":-1.9057999999999999,"long":30.046199999999999},"geometry":{"x":30.046200000000056,"y":-1.9057999999999424}},{"attributes":{"objectid":13,"facility_name":"Gikomero II HC","id":654,"opening_date":"1/1/2011","sector":"Gikomero","subdistrict":"Kibagabaga Sub District","district":"Gasabo ","province":"Kigali City","facility_type":"Health Center","ownership":"Agree","lat":-1.85982,"long":30.153829999999999},"geometry":{"x":30.153830000000028,"y":-1.8598199999999565}},{"attributes":{"objectid":14,"facility_name":"Gikondo HC","id":32,"opening_date":"1/1/2011","sector":"Gikondo","subdistrict":"Masaka Sub District","district":"Kicukiro ","province":"Kigali City","facility_type":"Health Center","ownership":"Agree","lat":-1.97,"long":30.078399999999998},"geometry":{"x":30.078400000000045,"y":-1.9699999999999704}},{"attributes":{"objectid":15,"facility_name":"Gitega HC","id":5,"opening_date":"1/1/2011","sector":"Nyarugenge","subdistrict":"Muhima Sub District","district":"Nyarugenge ","province":"Kigali City","facility_type":"Health Center","ownership":"Public","lat":-1.9577,"long":30.059899999999999},"geometry":{"x":30.059900000000027,"y":-1.9576999999999316}},{"attributes":{"objectid":16,"facility_name":"Jali HC","id":16,"opening_date":"1/1/2011","sector":"Jali","subdistrict":"Kibagabaga Sub District","district":"Gasabo ","province":"Kigali City","facility_type":"Health Center","ownership":"Public","lat":-1.8899999999999999,"long":30.019100000000002},"geometry":{"x":30.019100000000037,"y":-1.8899999999999295}},{"attributes":{"objectid":17,"facility_name":"Kabuga HC","id":33,"opening_date":"1/1/2011","sector":"Masaka","subdistrict":"Masaka Sub District","district":"Kicukiro ","province":"Kigali City","facility_type":"Health Center","ownership":"Agree","lat":-1.9839,"long":30.2285},"geometry":{"x":30.228500000000054,"y":-1.9838999999999487}},{"attributes":{"objectid":18,"facility_name":"Kabusunzu HC","id":6,"opening_date":"1/1/2011","sector":"Nyakabanda","subdistrict":"Muhima Sub District","district":"Nyarugenge ","province":"Kigali City","facility_type":"Health Center","ownership":"Public","lat":-1.9630000000000001,"long":30.0519},"geometry":{"x":30.051900000000046,"y":-1.9629999999999654}},{"attributes":{"objectid":19,"facility_name":"Kabuye HC","id":17,"opening_date":"1/1/2011","sector":"Jabana","subdistrict":"Kibagabaga Sub District","district":"Gasabo ","province":"Kigali City","facility_type":"Health Center","ownership":"Public","lat":-1.8897999999999999,"long":30.063500000000001},"geometry":{"x":30.063500000000033,"y":-1.8897999999999797}},{"attributes":{"objectid":20,"facility_name":"Kacyiru HC","id":18,"opening_date":"1/1/2011","sector":"Kacyiru","subdistrict":"Kibagabaga Sub District","district":"Gasabo ","province":"Kigali City","facility_type":"Health Center","ownership":"Public","lat":-1.9331,"long":30.075199999999999},"geometry":{"x":30.075200000000052,"y":-1.9330999999999676}},{"attributes":{"objectid":21,"facility_name":"Kacyiru DH","id":19,"opening_date":"1/1/2011","sector":"Kacyiru","subdistrict":"Kibagabaga Sub District","district":"Gasabo ","province":"Kigali City","facility_type":"District Hospital","ownership":"Public","lat":-1.932984,"long":30.075489000000001},"geometry":{"x":30.075489000000061,"y":-1.9329839999999763}},{"attributes":{"objectid":22,"facility_name":"Kagugu HC","id":20,"opening_date":"1/1/2011","sector":"Kinyinya","subdistrict":"Kibagabaga Sub District","district":"Gasabo ","province":"Kigali City","facility_type":"Health Center","ownership":"Public","lat":-1.9129,"long":30.086300000000001},"geometry":{"x":30.086300000000051,"y":-1.9128999999999792}},{"attributes":{"objectid":23,"facility_name":"Kayanga HC","id":21,"opening_date":"1/1/2011","sector":"Rutunga","subdistrict":"Kibagabaga Sub District","district":"Gasabo ","province":"Kigali City","facility_type":"Health Center","ownership":"Public","lat":-1.8420000000000001,"long":30.1905},"geometry":{"x":30.190500000000043,"y":-1.8419999999999277}},{"attributes":{"objectid":24,"facility_name":"Kibagabaga Hospital","id":22,"opening_date":"1/1/2011","sector":"Kimironko","subdistrict":"Kibagabaga Sub District","district":"Gasabo ","province":"Kigali City","facility_type":"District Hospital","ownership":"Public","lat":-1.9308000000000001,"long":30.111999999999998},"geometry":{"x":30.112000000000023,"y":-1.9307999999999765}},{"attributes":{"objectid":25,"facility_name":"Kicukiro HC","id":35,"opening_date":"1/1/2011","sector":"Niboye","subdistrict":"Masaka Sub District","district":"Kicukiro ","province":"Kigali City","facility_type":"Health Center","ownership":"Agree","lat":-1.9766999999999999,"long":30.1145},"geometry":{"x":30.114500000000078,"y":-1.9766999999999371}},{"attributes":{"objectid":26,"facility_name":"King Faisal Hospital","id":24,"opening_date":"1/1/2011","sector":"Kacyiru","subdistrict":"Kibagabaga Sub District","district":"Gasabo ","province":"Kigali City","facility_type":"Referral Hospital","ownership":"Public","lat":-1.9439,"long":30.095099999999999},"geometry":{"x":30.095100000000059,"y":-1.9438999999999282}},{"attributes":{"objectid":27,"facility_name":"Kinyinya HC","id":25,"opening_date":"1/1/2011","sector":"Kinyinya","subdistrict":"Kibagabaga Sub District","district":"Gasabo ","province":"Kigali City","facility_type":"Health Center","ownership":"Public","lat":-1.9185000000000001,"long":30.111999999999998},"geometry":{"x":30.112000000000023,"y":-1.9184999999999377}},{"attributes":{"objectid":28,"facility_name":"Masaka HC","id":36,"opening_date":"1/1/2011","sector":"Masaka","subdistrict":"Masaka Sub District","district":"Kicukiro ","province":"Kigali City","facility_type":"Health Center","ownership":"Agree","lat":-1.9956,"long":30.191299999999998},"geometry":{"x":30.191300000000069,"y":-1.9955999999999676}},{"attributes":{"objectid":29,"facility_name":"Masaka District Hospital","id":1234,"opening_date":"1/1/2011","sector":"Masaka","subdistrict":"Masaka Sub District","district":"Kicukiro ","province":"Kigali City","facility_type":"District Hospital","ownership":"Public","lat":-1.99563,"long":30.191299999999998},"geometry":{"x":30.191300000000069,"y":-1.9956299999999487}},{"attributes":{"objectid":30,"facility_name":"Muhima HC","id":7,"opening_date":"1/1/2011","sector":"Muhima","subdistrict":"Muhima Sub District","district":"Nyarugenge ","province":"Kigali City","facility_type":"Health Center","ownership":"Public","lat":-1.9367000000000001,"long":30.05857},"geometry":{"x":30.058570000000032,"y":-1.9366999999999734}},{"attributes":{"objectid":31,"facility_name":"Muhima DH","id":8,"opening_date":"1/1/2011","sector":"Muhima","subdistrict":"Muhima Sub District","district":"Nyarugenge ","province":"Kigali City","facility_type":"District Hospital","ownership":"Public","lat":-1.9367000000000001,"long":30.058499999999999},"geometry":{"x":30.058500000000038,"y":-1.9366999999999734}},{"attributes":{"objectid":32,"facility_name":"Mwendo HC","id":9,"opening_date":"1/1/2011","sector":"Kigali","subdistrict":"Muhima Sub District","district":"Nyarugenge ","province":"Kigali City","facility_type":"Health Center","ownership":"Public","lat":-1.9821,"long":30.016300000000001},"geometry":{"x":30.016300000000058,"y":-1.9820999999999458}},{"attributes":{"objectid":33,"facility_name":"Nyacyonga HC","id":26,"opening_date":"1/1/2011","sector":"Jabana","subdistrict":"Kibagabaga Sub District","district":"Gasabo ","province":"Kigali City","facility_type":"Health Center","ownership":"Public","lat":-1.8680000000000001,"long":30.084199999999999},"geometry":{"x":30.084200000000067,"y":-1.8679999999999382}},{"attributes":{"objectid":34,"facility_name":"Nyarugunga HC","id":558,"opening_date":"1/1/2011","sector":"Nyarugunga","subdistrict":"Masaka Sub District","district":"Kicukiro ","province":"Kigali City","facility_type":"Health Center","ownership":"Public","lat":-1.975498,"long":30.169060000000002},"geometry":{"x":30.169060000000059,"y":-1.9754979999999591}},{"attributes":{"objectid":35,"facility_name":"Remera HC","id":23,"opening_date":"1/1/2011","sector":"Remera","subdistrict":"Kibagabaga Sub District","district":"Gasabo ","province":"Kigali City","facility_type":"Health Center","ownership":"Public","lat":-1.9514,"long":30.126100000000001},"geometry":{"x":30.126100000000065,"y":-1.9513999999999783}},{"attributes":{"objectid":36,"facility_name":"Rubungo HC","id":28,"opening_date":"1/1/2011","sector":"Ndera","subdistrict":"Kibagabaga Sub District","district":"Gasabo ","province":"Kigali City","facility_type":"Health Center","ownership":"Agree","lat":-1.946,"long":30.1738},"geometry":{"x":30.173800000000028,"y":-1.9459999999999695}},{"attributes":{"objectid":37,"facility_name":"Rugarama HC","id":11,"opening_date":"1/1/2011","sector":"Nyamirambo","subdistrict":"Muhima Sub District","district":"Nyarugenge ","province":"Kigali City","facility_type":"Health Center","ownership":"Public","lat":-1.992,"long":30.043399999999998},"geometry":{"x":30.043400000000076,"y":-1.9919999999999618}},{"attributes":{"objectid":38,"facility_name":"Rwanda Miltary Hospital","id":34,"opening_date":"1/1/2011","sector":"Nyarugunga","subdistrict":"Masaka Sub District","district":"Kicukiro ","province":"Kigali City","facility_type":"Referral Hospital","ownership":"Public","lat":-1.9786999999999999,"long":30.1678},"geometry":{"x":30.167800000000057,"y":-1.9786999999999466}},{"attributes":{"objectid":39,"facility_name":"Rwanda Women's Network HC","id":1229,"opening_date":"1/1/1900","sector":"Kinyinya","subdistrict":"Kibagabaga Sub District","district":"Gasabo ","province":"Kigali City","facility_type":"Health Center","ownership":"Agree","lat":-1.918283,"long":30.09308},"geometry":{"x":30.093080000000043,"y":-1.918282999999974}},{"attributes":{"objectid":40,"facility_name":"Solace Ministries Hc","id":1228,"opening_date":"1/1/1900","sector":"Rusororo","subdistrict":"Kibagabaga Sub District","district":"Gasabo ","province":"Kigali City","facility_type":"Health Center","ownership":"Agree","lat":-1.9807939999999999,"long":30.215105999999999},"geometry":{"x":30.215106000000048,"y":-1.9807939999999462}}]}